property_id,source_agency,feed_date,sold_let_date,transaction_type,listing_status,address,area,borough,postcode,property_type,tenure,bedrooms,bathrooms,sqft,price,price_per_sqft,condition,epc_rating,heating_type,garden,parking,floor_level,days_on_market,agent_id,is_chain_free,longitude,latitude
FOX-20250106-001,Foxtons,06/01/2025,2025-01-22,Sale,Withdrawn,"239 Grove Road, Stratford, London E15 4C2",Stratford,Newham,E15 4C2,Penthouse,Freehold,4,4,1637,1668000,1018.94,New Build,B,None,Yes,Yes,7,16,AGT-889,No,-0.493011,51.57621
FOX-20250106-002,Foxtons,06/01/2025,,Sale,Sold,"48 Green Lane, Canary Wharf, London E14 9N1",Canary Wharf,Tower Hamlets,E14 9N1,Detached,Leasehold,2,1,2821,-813000,288.2,Good,C,Electric,No,Yes,0,55,AGT-761,No,-0.422068,51.524323
FOX-20250106-003,Foxtons,06/01/2025,2025-05-07,Rental,Active,"202 Green Lane, Hackney, London E8 6L5",Hackney,Hackney,E8 6L5,Bungalow,N/A,3,3,,3841,3.45,Fair,A,Underfloor,Yes,No,0,121,AGT-210,Yes,0.289698,51.578928
FOX-20250106-004,Foxtons,06/01/2025,2025-03-17,Rental,Under Offer,"100 Park Lane, Shoreditch, London E1 6M5",Shoreditch,Hackney,E1 6M5,Semi-Detached,N/A,3,3,2764,3420,1.24,Good,G,None,Yes,Yes,0,70,AGT-784,No,-0.449468,51.314257
FOX-20250106-005,Foxtons,06/01/2025,2025-05-28,Rental,Active,"102 Park Lane, Stratford, London E15 5N9",Stratford,Newham,E15 5N9,Bungalow,N/A,2,1,570,4063,7.13,Good,C,Electric,No,No,0,142,AGT-609,Yes,-0.367646,51.578265
FOX-20250106-006,Foxtons,06/01/2025,2025-02-13,Sale,Under Offer,"167 Station Road, Shoreditch, London E1 1C5",Shoreditch,Hackney,E1 1C5,Flat,Leasehold,1,2,1798,452000,251.39,Excellent,A,Electric,No,No,3,38,AGT-944,Yes,0.168063,51.353907
FOX-20250106-007,Foxtons,06/01/2025,2025-03-07,Rental,Under Offer,"117 King Street, Hackney, London E8 4G9",Hackney,Hackney,E8 4G9,Maisonette,N/A,4,3,922,3355,3.64,Fair,B,Underfloor,Yes,Permit Only,6,60,AGT-995,No,0.30613,51.60966
FOX-20250106-008,Foxtons,06/01/2025,,Sale,Active,"44 High Street, Ealing, London W5 1B2",Ealing,Ealing,W5 1B2,Flat,Freehold,1,1,1464,596000,407.1,New Build,A,Gas Central,No,No,11,112,AGT-278,No,-0.186258,51.299701
FOX-20250106-009,Foxtons,06/01/2025,2025-06-24,Rental,Active,"164 Victoria Road, Hackney, London E8 5K1",Hackney,Hackney,E8 5K1,Penthouse,N/A,1,2,1063,7619,7.17,Needs Renovation,E,Underfloor,Yes,Permit Only,14,169,AGT-213,No,0.212371,51.454856
FOX-20250106-010,Foxtons,06/01/2025,,Rental,Under Offer,"151 King Street, Canary Wharf, London E14 7P2",Canary Wharf,Tower Hamlets,E14 7P2,Semi-Detached,N/A,1,1,1176,3041,2.59,Excellent,G,None,Yes,Permit Only,0,161,AGT-731,No,0.0598,51.470578
FOX-20250106-011,Foxtons,06/01/2025,2025-05-09,Rental,Active,"156 Church Road, Richmond, London TW9 4N9",Richmond,Richmond upon Thames,TW9 4N9,Studio,N/A,1,2,2550,1455,0.57,New Build,B,None,Yes,Permit Only,4,123,AGT-636,No,0.128785,51.402256
FOX-20250106-012,Foxtons,06/01/2025,2025-05-17,Rental,Let Agreed,"244 Park Lane, Croydon, London CR0 5F3",Croydon,Croydon,CR0 5F3,Semi-Detached,N/A,,1,645,3894,6.04,Good,E,Heat Pump,Yes,No,0,131,AGT-481,Yes,-0.333818,51.396842
FOX-20250106-013,Foxtons,06/01/2025,2025-03-13,Rental,Active,"56 The Avenue, Richmond, London TW9 8P3",Richmond,Richmond upon Thames,TW9 8P3,Terraced House,N/A,5,2,2298,2908,1.27,Needs Renovation,D,Underfloor,Yes,No,0,66,AGT-114,No,0.1228,51.541165
FOX-20250106-014,Foxtons,06/01/2025,,Rental,Let Agreed,"27 Green Lane, Brixton, London SW9 1N9",Brixton,Lambeth,SW9 1N9,Semi-Detached,N/A,5,2,2549,3480,1.37,Good,F,None,No,Permit Only,0,40,AGT-998,No,0.32541,51.537202
FOX-20250106-015,Foxtons,06/01/2025,2025-06-29,Sale,Sold,"203 Park Lane, Richmond, London TW9 1L2",Richmond,Richmond upon Thames,TW9 1L2,Maisonette,Shared Ownership,3,3,771,647000,839.17,Excellent,G,Electric,No,Yes,9,174,AGT-323,No,0.177899,51.474144
FOX-20250106-016,Foxtons,06/01/2025,2025-02-23,Sale,Sold,"54 The Avenue, Canary Wharf, London E14 9G3",Canary Wharf,Tower Hamlets,E14 9G3,Semi-Detached,Freehold,5,1,692,720000,1040.46,New Build,A,Underfloor,No,Yes,0,48,AGT-337,Yes,-0.452003,51.383732
FOX-20250106-017,Foxtons,06/01/2025,2025-03-07,Rental,Let Agreed,"124 King Street, Hackney, London E8 3G8",Hackney,Hackney,E8 3G8,Maisonette,N/A,5,3,1049,2632,2.51,Good,A,None,Yes,Yes,15,60,AGT-632,Yes,-0.138507,51.648335
FOX-20250106-018,Foxtons,06/01/2025,,Rental,Under Offer,"166 London Road, Hackney, London E8 2D9",Hackney,Hackney,E8 2D9,Terraced House,N/A,5,4,2315,2494,1.08,Good,D,Underfloor,Yes,Permit Only,0,58,AGT-886,No,-0.483187,51.363128
FOX-20250106-019,Foxtons,06/01/2025,2025-02-07,Rental,Let Agreed,"118 Station Road, Islington, London N1 4H5",Islington,Islington,N1 4H5,Flat,N/A,5,3,1148,1896,1.65,Excellent,A,Gas Central,Yes,Permit Only,10,32,AGT-612,No,-0.12093,51.638211
